[{"id":"new_york","name":"New York","state":"NY","lat":40.71,"lon":-74.01,"population":18800000},{"id":"los_angeles","name":"Los Angeles","state":"CA","lat":34.05,"lon":-118.24,"population":12500000},{"id":"chicago","name":"Chicago","state":"IL","lat":41.88,"lon":-87.63,"population":9500000},{"id":"houston","name":"Houston","state":"TX","lat":29.76,"lon":-95.37,"population":7100000},{"id":"phoenix","name":"Phoenix","state":"AZ","lat":33.45,"lon":-112.07,"population":4900000},{"id":"philadelphia","name":"Philadelphia","state":"PA","lat":39.95,"lon":-75.16,"population":6200000},{"id":"san_antonio","name":"San Antonio","state":"TX","lat":29.42,"lon":-98.49,"population":2600000},{"id":"san_diego","name":"San Diego","state":"CA","lat":32.72,"lon":-117.16,"population":3300000},{"id":"dallas","name":"Dallas","state":"TX","lat":32.78,"lon":-96.8,"population":7600000},{"id":"atlanta","name":"Atlanta","state":"GA","lat":33.75,"lon":-84.39,"population":6100000},{"id":"seattle","name":"Seattle","state":"WA","lat":47.61,"lon":-122.33,"population":4000000},{"id":"denver","name":"Denver","state":"CO","lat":39.74,"lon":-104.99,"population":2960000},{"id":"miami","name":"Miami","state":"FL","lat":25.76,"lon":-80.19,"population":6200000},{"id":"minneapolis","name":"Minneapolis","state":"MN","lat":44.98,"lon":-93.27,"population":3700000},{"id":"boston","name":"Boston","state":"MA","lat":42.36,"lon":-71.06,"population":4900000},{"id":"detroit","name":"Detroit","state":"MI","lat":42.33,"lon":-83.05,"population":4300000},{"id":"portland","name":"Portland","state":"OR","lat":45.52,"lon":-122.68,"population":2500000},{"id":"las_vegas","name":"Las Vegas","state":"NV","lat":36.17,"lon":-115.14,"population":2300000},{"id":"charlotte","name":"Charlotte","state":"NC","lat":35.23,"lon":-80.84,"population":2700000},{"id":"nashville","name":"Nashville","state":"TN","lat":36.16,"lon":-86.78,"population":2000000},{"id":"kansas_city","name":"Kansas City","state":"MO","lat":39.1,"lon":-94.58,"population":2200000},{"id":"st_louis","name":"St. Louis","state":"MO","lat":38.63,"lon":-90.2,"population":2800000},{"id":"salt_lake_city","name":"Salt Lake City","state":"UT","lat":40.76,"lon":-111.89,"population":1250000},{"id":"tampa","name":"Tampa","state":"FL","lat":27.95,"lon":-82.46,"population":3200000},{"id":"orlando","name":"Orlando","state":"FL","lat":28.54,"lon":-81.38,"population":2700000},{"id":"pittsburgh","name":"Pittsburgh","state":"PA","lat":40.44,"lon":-79.996,"population":2300000},{"id":"cincinnati","name":"Cincinnati","state":"OH","lat":39.1,"lon":-84.51,"population":2200000},{"id":"cleveland","name":"Cleveland","state":"OH","lat":41.5,"lon":-81.69,"population":2050000},{"id":"indianapolis","name":"Indianapolis","state":"IN","lat":39.77,"lon":-86.16,"population":2050000},{"id":"columbus","name":"Columbus","state":"OH","lat":39.96,"lon":-83.0,"population":2150000},{"id":"milwaukee","name":"Milwaukee","state":"WI","lat":43.04,"lon":-87.91,"population":1570000},{"id":"oklahoma_city","name":"Oklahoma City","state":"OK","lat":35.47,"lon":-97.52,"population":1400000},{"id":"new_orleans","name":"New Orleans","state":"LA","lat":29.95,"lon":-90.07,"population":1270000},{"id":"memphis","name":"Memphis","state":"TN","lat":35.15,"lon":-90.05,"population":1340000},{"id":"raleigh","name":"Raleigh","state":"NC","lat":35.78,"lon":-78.64,"population":1400000},{"id":"sacramento","name":"Sacramento","state":"CA","lat":38.58,"lon":-121.49,"population":2400000},{"id":"san_francisco","name":"San Francisco","state":"CA","lat":37.77,"lon":-122.42,"population":4700000},{"id":"albuquerque","name":"Albuquerque","state":"NM","lat":35.08,"lon":-106.65,"population":920000},{"id":"austin","name":"Austin","state":"TX","lat":30.27,"lon":-97.74,"population":2300000},{"id":"jacksonville","name":"Jacksonville","state":"FL","lat":30.33,"lon":-81.66,"population":1600000},{"id":"boise","name":"Boise","state":"ID","lat":43.62,"lon":-116.2,"population":750000},{"id":"omaha","name":"Omaha","state":"NE","lat":41.26,"lon":-95.93,"population":970000}]